{"start_time": 1423458000.0, "display_times": ["2015-02-09 00:30", "2015-02-09 01:30", "2015-02-09 02:30", "2015-02-09 03:30", "2015-02-09 04:30", "2015-02-09 05:30", "2015-02-09 06:30", "2015-02-09 07:30", "2015-02-09 08:30", "2015-02-09 09:30", "2015-02-09 10:30", "2015-02-09 11:30", "2015-02-09 12:30", "2015-02-09 13:30", "2015-02-09 14:30", "2015-02-09 15:30", "2015-02-09 16:30", "2015-02-09 17:30", "2015-02-09 18:30", "2015-02-09 19:30", "2015-02-09 20:30", "2015-02-09 21:30", "2015-02-09 22:30", "2015-02-09 23:30"], "sites": {"32": {"SONICWS_MPH": [4.2, 4.1, 4.8, 5.2, 4.5, 7, 9.9, 10.4, 9.1, 7.7, 8.8, 10, 9.2, 9.3, 9.5, 8.7, 8.6, 9.3, 9.9, 9.5, 10.1, 8.9, 8.5, 9.8], "longitude": -80.169943, "SONICWD_DEG": [219, 232, 271, 318, 323, 342, 339, 339, 347, 339, 343, 353, 347, 354, 355, 4, 0, 350, 352, 349, 353, 352, 346, 346], "latitude": 40.375644, "id": 32, "name": "South Fayette ACHD"}, "1": {"SONICWS_MPH": [1.3, 1.4, 2.7, 3.7, 4.1, 6.6, 6.3, 6.8, 5.5, 4.8, 6, 5.4, 6.4, 4.2, 4.5, 5.3, 3.8, 4.6, 4.3, 6.3, 5.2, 3.7, 5, 4.5], "longitude": -80.071337, "PM25B_UG_M3": [30, 28, 27, 27, 19, 12, 19, 14, 12, 10, 11, 12, 11, 11, 13, 13, 14, 14, 11, 10, 12, 15, 7, 16], "SONICWD_DEG": [118, 121, 311, 323, 308, 308, 315, 315, 324, 318, 327, 317, 313, 331, 335, 327, 338, 326, 329, 318, 325, 324, 324, 322], "latitude": 40.499767, "id": 1, "name": "Avalon ACHD"}, "34": {"latitude": 40.43743055555555, "id": 34, "longitude": -79.86357222222222, "name": "Near Road ACHD"}, "3": {"SONICWS_MPH": [2.2, 2.2, 1.9, 1.5, 1.4, 2.7, 6, 6.3, 5.3, 5.5, 5.6, 5.5, 5, 5.4, 4.9, 4.3, 4.3, 4.3, 4.8, 4.5, 4.1, 4.2, 3.8, 4.3], "longitude": -79.860973, "PM10B_UG_M3": [43, 39, 55, 36, 25, 29, 20, 15, 15, 13, 11, 11, 13, 24, 21, 23, 22, 20, 15, 22, 21, 23, 25, 20], "SONICWD_DEG": [139, 146, 142, 329, 11, 313, 303, 319, 318, 312, 315, 315, 319, 314, 318, 320, 331, 324, 316, 321, 318, 320, 330, 328], "latitude": 40.402328, "id": 3, "name": "North Braddock ACHD"}, "33": {"latitude": 40.441111, "id": 33, "longitude": -80.26730277777779, "name": "West Allegheny ACHD"}, "43": {"SONICWS_MPH": [1.7, 1.5, 1.7, 3, 2.3, 3.5, 5, 6.7, 6.1, 5.1, 5.3, 3.8, 4.4, 3.6, 3.6, 3.7, 3.6, 3.4, 3.2, 2.8, 3.1, 3, 3.2, 3.1], "longitude": -79.86357222222222, "SONICWD_DEG": [163, 168, 193, 302, 318, 328, 334, 330, 325, 321, 325, 341, 340, 1, 4, 357, 353, 351, 356, 4, 20, 9, 4, 14], "latitude": 40.43743055555555, "id": 43, "name": "Parkway East Near Road ACHD"}, "35": {"latitude": 40.43743055555555, "id": 35, "longitude": -79.86357222222222, "name": "Parkway East Near Road ACHD"}, "22": {"latitude": 40.438632, "id": 22, "longitude": -80.002543, "name": "Court House ACHD"}, "23": {"latitude": 40.443367, "PM10_UG_M3": [24, 24, 22, 33, 26, 18, 9, 10, 6, 8, 12, 15, 17, 18, 23, 29, 36, 28, 26, 20, 17, 16, 14, 14], "id": 23, "longitude": -79.990293, "name": "Flag Plaza ACHD"}, "24": {"latitude": 40.326008, "PM10_UG_M3": [50, 35, 24, 19, 7, 7, 9, 8, 9, 9, 9, 11, 9, 10, 12, 13, 13, 16, 12, 11, 12, 12, 14, 12], "id": 24, "longitude": -79.881703, "name": "Glassport High Street ACHD"}, "25": {"latitude": 40.613949, "id": 25, "longitude": -79.72941, "name": "Harrison Township ACHD"}, "26": {"RWD_DEG": [12, 354, 347, 216, 236, 288, 297, 323, 320, 336, 323, 325, 326, 321, 318, 329, 329, 329, 321, 329, 327, 319, 314, 321], "SONICWS_MPH": [1.5, 1, 1.2, 2, 3, 4.5, 6.9, 7.2, 8.2, 7, 8.1, 8.5, 7.4, 6.2, 8.1, 6.9, 6.7, 6.6, 7.3, 7.6, 8, 6.2, 6.4, 6.6], "PM25_2__UG_M3": [20, 22, 24, 25, 31, 20, 10, 7, 9, 10, 11, 10, 10, 13, 12, 13, 14, 15, 13, 15, 12, 15, 14, 14], "longitude": -79.960757, "name": "Lawrenceville ACHD", "PM25B_UG_M3": [23, 22, 21, 19, 29, 17, 15, 17, 13, 13, 13, 17, 14, null, null, 12, 10, 12, 15, 12, 13, 18, 11, 13], "PM10B_UG_M3": [25, 20, 27, 28, 33, 23, 13, 14, 12, 20, 15, 13, 17, null, null, 20, 23, 17, 24, 16, 18, 18, 12, 16], "SONICWD_DEG": [15, 354, 348, 217, 236, 283, 297, 322, 322, 336, 324, 325, 325, 322, 319, 330, 330, 329, 322, 330, 326, 319, 314, 320], "latitude": 40.46542, "id": 26, "PM25_UG_M3": [14, 16, 17, 17, 22, 14, 6, 4, 6, 7, 7, 7, 7, 8, 8, 8, 10, 10, 9, 10, 8, 10, 9, 9], "RWS_MPH": [1.2, 0.8, 1, 1.7, 2.8, 3.9, 6.6, 6.8, 7.8, 6.8, 7.8, 8.1, 7.1, 5.9, 7.7, 6.5, 6.3, 6.4, 7, 7.3, 7.7, 6, 6.2, 6.3]}, "28": {"SONICWS_MPH": [2.6, 2.4, 3.2, 4.4, 4.3, 4.1, 5.4, 5.8, 5.9, 5.7, 6, 7.1, 7.2, 7.1, 7.1, 6.6, 7.5, 7.1, 6.9, 6.9, 6.8, 7.7, 5.5, 7.2], "PM10_UG_M3": [41, 63, 92, 64, 7, 10, 7, 7, 12, 10, 9, 9, 8, 9, 11, 13, 12, 14, 11, 11, 11, 10, 13, 11], "PM25_2__UG_M3": [35, 53, 73, 52, 7, 9, 13, 13, 13, 11, 11, 9, 6, 9, 10, 11, 12, 15, 11, 11, 12, 11, 13, 12], "longitude": -79.868062, "SONICWD_DEG": [194, 202, 214, 247, 303, 312, 314, 342, 318, 317, 330, 343, 344, 341, 349, 354, 349, 344, 345, 344, 352, 349, 330, 345], "latitude": 40.323768, "id": 28, "PM25_UG_M3": [28, 43, 60, 42, 5, 6, 10, 10, 10, 9, 8, 7, 4, 7, 8, 8, 9, 11, 8, 8, 9, 8, 10, 9], "name": "Liberty ACHD"}, "30": {"name": "Lincoln ACHD", "PM10_UG_M3": [49, 83, 62, 81, 9, 6, 9, 9, 9, 10, 10, 10, 8, 9, 10, 11, 11, 14, 10, 11, 10, 11, 12, 11], "longitude": -79.869134, "latitude": 40.308219, "id": 30, "PM25_UG_M3": [41, 55, 42, 44, 9, 9, 12, 12, 12, 11, 10, 10, 8, 8, 9, 11, 10, 12, 10, 10, 10, 10, 11, 10]}, "31": {"latitude": 40.450099, "PM10B_UG_M3": [24, 26, 17, 22, 13, 11, 13, 15, 11, 11, 12, 13, 12, 12, 11, 19, 13, 13, 13, 16, 16, 18, 16, 15], "id": 31, "longitude": -79.770957, "name": "Monroeville ACHD"}}}